City_ID,City,Lat,Lng,Max Temp,Humidity,Cloudiness,Wind Speed,Country,Date
0,beaudesert,-27.9833,152.9833,19.49,58,92,0.8,AU,1718866208
1,mammoth lakes,37.6485,-118.9721,10.75,41,0,3.6,US,1718866208
2,stanley,54.868,-1.6985,13.77,79,0,4.63,GB,1718866132
3,raduzhny,62.0961,77.475,13.16,32,0,1.12,RU,1718866209
4,novouzensk,50.4592,48.1431,26.94,43,51,3.99,RU,1718866209
5,hermanus,-34.4187,19.2345,7.67,76,8,4.16,ZA,1718866209
6,newman,37.3138,-121.0208,21.13,49,0,0.45,US,1718866210
7,constantia,44.1833,28.65,29.38,53,6,4.26,RO,1718866210
8,wailua homesteads,22.0669,-159.378,26.24,87,100,9.77,US,1718866210
9,adamstown,-25.066,-130.1015,21.53,75,0,11.75,PN,1718866211
10,touros,-5.1989,-35.4608,23.27,91,21,4.56,BR,1718866211
11,ushuaia,-54.8,-68.3,-0.19,80,40,7.2,AR,1718866211
12,port-aux-francais,-49.35,70.2167,5.91,97,100,15.66,TF,1718866212
13,iqaluit,63.7506,-68.5145,1.85,93,100,2.06,CA,1718866212
14,waitangi,-43.9535,-176.5597,8.23,74,97,8.18,NZ,1718866212
15,kolobrzeg,54.1757,15.5834,16.09,64,15,6.53,PL,1718866213
16,mezokovesd,47.8167,20.5833,25.23,66,11,6.34,HU,1718866213
17,blackmans bay,-43.0167,147.3167,8.74,92,100,3.43,AU,1718866213
18,carnarvon,-24.8667,113.6333,22.36,41,0,6.44,AU,1718866214
19,celestun,20.8667,-90.4,25.4,90,100,7.0,MX,1718866214
20,albany,42.6001,-73.9662,23.29,93,100,1.14,US,1718865979
21,ancud,-41.8697,-73.8203,6.05,85,100,8.79,CL,1718866214
22,yellowknife,62.456,-114.3525,13.29,50,75,2.57,CA,1718866215
23,serdar,38.9764,56.2757,34.76,31,6,7.69,TM,1718866215
24,snowflake,34.5134,-110.0785,19.86,31,0,3.15,US,1718866215
25,olonkinbyen,70.9221,-8.7187,-0.03,98,100,10.57,SJ,1718866216
26,avarua,-21.2078,-159.775,20.03,94,20,0.51,CK,1718866216
27,polyarnyy,69.1989,33.4478,15.78,70,45,6.12,RU,1718866216
28,ribeira grande,38.5167,-28.7,18.22,77,75,2.57,PT,1718866217
29,longyearbyen,78.2186,15.6401,4.91,81,75,5.14,SJ,1718866217
30,whitehorse,60.7161,-135.0538,19.43,26,20,0.0,CA,1718866218
31,qarazhal,48.0078,70.7903,29.75,19,4,2.96,KZ,1718866218
32,west island,-12.1568,96.8225,29.99,74,75,7.2,CC,1718866219
33,kodiak,57.79,-152.4072,7.73,93,100,3.09,US,1718866219
34,lihue,21.9789,-159.3672,26.58,83,100,9.77,US,1718866220
35,tiksi,71.6872,128.8694,4.92,80,100,2.15,RU,1718866220
36,port elizabeth,-33.918,25.5701,15.17,78,0,1.54,ZA,1718866221
37,bolobo,-2.1667,16.2333,27.33,49,100,1.48,CD,1718866221
38,nabire,-3.3667,135.4833,28.0,83,97,0.85,ID,1718866152
39,mount pearl,47.5166,-52.7813,18.19,93,75,10.29,CA,1718866222
40,lompoc,34.6391,-120.4579,12.1,85,100,6.71,US,1718866222
41,edinburgh of the seven seas,-37.0676,-12.3116,13.08,74,100,9.01,SH,1718866222
42,inari,68.906,27.0288,9.42,95,100,3.4,FI,1718866223
43,udachny,66.4167,112.4,16.19,69,100,6.21,RU,1718866223
44,glendive,47.1053,-104.7125,14.79,72,0,3.6,US,1718866224
45,fort st. john,56.2499,-120.8529,14.94,58,40,2.57,CA,1718866180
46,christchurch,-43.5333,172.6333,11.06,84,100,6.69,NZ,1718866029
47,puerto natales,-51.7236,-72.4875,-7.73,95,31,1.41,CL,1718866225
48,papatowai,-46.5619,169.4708,6.72,91,57,3.25,NZ,1718866225
49,coishco,-9.0231,-78.6156,17.11,88,98,3.19,PE,1718866225
50,arraial do cabo,-22.9661,-42.0278,21.79,71,0,2.19,BR,1718866225
51,lask,51.5906,19.1328,17.29,77,3,0.89,PL,1718866226
52,luderitz,-26.6481,15.1594,16.31,38,56,2.68,NA,1718866226
53,grytviken,-54.2811,-36.5092,-3.49,77,57,4.96,GS,1718866226
54,bilibino,68.0546,166.4372,18.17,36,6,8.76,RU,1718866227
55,anadyr,64.75,177.4833,3.28,93,75,4.0,RU,1718866227
56,petropavlovsk-kamchatsky,53.0452,158.6483,10.33,66,40,7.0,RU,1718866227
57,palmer,42.1584,-72.3287,22.99,72,0,1.54,US,1718866016
58,bambari,5.768,20.6757,26.36,78,42,1.04,CF,1718866228
59,margaret river,-33.95,115.0667,15.08,60,16,3.69,AU,1718866228
60,acarau,-2.8856,-40.12,23.93,87,22,5.39,BR,1718866229
61,manggar,-2.8833,108.2667,28.42,77,70,5.54,ID,1718866229
62,utrik,11.2278,169.8474,28.56,79,5,7.62,MH,1718866229
63,fale old settlement,-9.3852,-171.2468,29.16,76,16,5.73,TK,1718866230
64,la passe,45.5549,-0.8967,17.77,85,51,3.81,FR,1718866230
65,alice springs,-23.7,133.8833,14.75,58,40,3.09,AU,1718866230
66,tazovsky,67.4667,78.7,1.48,87,100,4.23,RU,1718866231
67,colares,38.7992,-9.4469,17.41,83,75,9.83,PT,1718866231
68,puerto ayora,-0.7393,-90.3518,21.42,99,100,3.01,EC,1718866231
69,sao joao da barra,-21.6403,-41.0511,20.99,90,0,3.33,BR,1718866231
70,atafu village,-8.5421,-172.5159,29.46,73,10,5.94,TK,1718866232
71,isla vista,34.4133,-119.861,17.13,78,0,0.0,US,1718866232
72,tehri,30.3833,78.4833,35.77,26,61,4.2,IN,1718866232
73,jackson,42.4165,-122.8345,21.93,37,0,0.0,US,1718866127
74,koster,-25.863,26.8976,13.84,18,0,2.11,ZA,1718866233
75,valencia,39.3333,-0.8333,22.28,51,35,6.03,ES,1718866233
76,bikenibeu village,1.3673,173.1241,29.98,79,40,3.6,KI,1718866234
77,villamontes,-21.25,-63.5,17.57,85,100,0.88,BO,1718866234
78,hadibu,12.65,54.0333,30.23,71,64,10.22,YE,1718866235
79,hamilton,39.1834,-84.5333,26.33,87,0,2.57,US,1718866104
80,isafjordur,66.0755,-23.124,2.71,74,94,2.71,IS,1718866236
81,huarmey,-10.0681,-78.1522,17.53,89,95,3.24,PE,1718866236
82,paraguacu paulista,-22.4128,-50.5758,15.73,48,0,2.3,BR,1718866171
83,druskininkai,54.0167,23.9667,15.25,57,6,5.84,LT,1718866237
84,zaysan,47.4667,84.8667,23.03,26,78,3.14,KZ,1718866237
85,aripuana,-9.1667,-60.6333,21.41,66,100,0.85,BR,1718866237
86,bethel,41.3712,-73.414,21.47,84,0,0.0,US,1718866156
87,mount gambier,-37.8333,140.7667,8.57,85,100,1.26,AU,1718866238
88,san patricio,28.017,-97.5169,29.35,89,100,8.9,US,1718866238
89,gazli,40.1333,63.45,37.87,14,0,6.15,UZ,1718866239
90,la pobla de farnals,39.5778,-0.3267,24.54,59,20,5.14,ES,1718866239
91,tofol,5.3248,163.0078,28.8,75,22,4.15,FM,1718866239
92,sarangani,5.4033,125.4636,26.22,83,100,6.31,PH,1718866240
93,freshwater,50.692,-1.5079,16.07,79,5,4.85,GB,1718866240
94,vila franca do campo,37.7167,-25.4333,18.27,99,65,1.03,PT,1718866240
95,rebola,3.7167,8.8333,25.62,94,40,1.03,GQ,1718866241
96,port mathurin,-19.6833,63.4167,23.35,74,3,10.64,MU,1718866241
97,punta del este,-34.9667,-54.95,13.26,94,0,1.79,UY,1718866241
98,port alfred,-33.5906,26.891,14.49,69,0,1.82,ZA,1718866241
99,hawaiian paradise park,19.5933,-154.9731,22.73,96,100,1.54,US,1718866242
100,kalabo,-14.97,22.6814,18.17,33,0,3.03,ZM,1718866242
101,sal rei,16.1833,-22.9167,22.73,84,99,4.79,CV,1718866242
102,nelson,-41.2833,173.2833,8.6,88,100,2.79,NZ,1718866060
103,aasiaat,68.7098,-52.8699,1.48,93,58,0.29,GL,1718866243
104,st ives,50.2086,-5.4875,14.24,94,20,3.09,GB,1718866243
105,kabalo,-6.05,26.9167,27.76,36,59,3.56,CD,1718866244
106,pisco,-13.7,-76.2167,17.03,82,100,2.57,PE,1718866244
107,sogndal,61.2283,7.1003,13.21,57,75,6.17,NO,1718866244
108,lingdong,46.5669,131.1453,15.79,99,100,1.77,CN,1718866245
109,port lincoln,-34.7333,135.8667,13.96,72,18,6.16,AU,1718866245
110,alofi,-19.0595,-169.9187,22.94,88,3,0.0,NU,1718866245
111,claremont,34.0967,-117.7198,20.05,82,0,3.09,US,1718866049
112,pauini,-7.7136,-66.9764,22.3,94,21,0.03,BR,1718866246
113,kisangani,0.5167,25.2,28.63,57,44,1.2,CD,1718866246
114,east london,-33.0153,27.9116,10.52,81,0,2.06,ZA,1718866247
115,buka,40.8108,69.1986,36.83,18,1,3.66,UZ,1718866247
116,cottage grove,44.8277,-92.9438,17.35,77,0,1.54,US,1718866200
117,rio pardo de minas,-15.6097,-42.5397,12.64,97,0,1.61,BR,1718866248
118,thompson,55.7435,-97.8558,9.09,93,75,1.54,CA,1718866248
119,badger,64.8,-147.5333,20.93,54,0,1.54,US,1718866248
120,salon,26.0333,81.45,41.57,28,87,5.0,IN,1718866248
121,prince rupert,54.3161,-130.3201,12.83,91,0,6.69,CA,1718866249
122,tangier,35.7806,-5.8137,19.64,73,20,4.12,MA,1718866249
123,qarqaraly,49.4058,75.4742,23.76,28,30,3.93,KZ,1718866249
124,qaqortoq,60.7167,-46.0333,3.31,92,100,1.13,GL,1718866250
125,jamestown,42.097,-79.2353,23.77,97,0,2.57,US,1718865985
126,codrington,-38.2667,141.9667,10.6,63,100,0.78,AU,1718866250
127,jalingo,8.8833,11.3667,27.01,79,16,1.63,NG,1718866251
128,talnakh,69.4865,88.3972,5.55,63,100,3.39,RU,1718866251
129,chonchi,-42.6128,-73.8092,5.62,88,100,3.4,CL,1718866251
130,bayanhongor,46.7167,100.1167,17.3,33,100,8.43,MN,1718866252
131,vorgashor,67.5833,63.95,5.27,68,2,4.6,RU,1718866252
132,college,64.8569,-147.8028,20.97,55,75,1.54,US,1718866252
133,saudarkrokur,65.7461,-19.6394,3.8,94,100,0.69,IS,1718866253
134,fort bragg,35.139,-79.006,22.91,83,40,0.0,US,1718866253
135,laguna,38.421,-121.4238,20.3,71,0,3.6,US,1718866253
136,totoras,-32.5844,-61.1685,9.27,68,19,3.05,AR,1718866254
137,ilulissat,69.2167,-51.1,4.01,87,19,0.51,GL,1718866254
138,galle,6.0367,80.217,30.52,79,100,0.89,LK,1718866104
139,santa cruz,-17.8,-63.1667,20.7,94,75,1.54,BO,1718866021
140,urucui,-7.2294,-44.5561,20.0,53,5,1.76,BR,1718866255
141,dourbali,11.8091,15.8632,33.1,39,41,3.65,TD,1718866255
142,queenstown,-31.8976,26.8753,8.12,73,0,0.82,ZA,1718866256
143,burkburnett,34.0979,-98.5706,24.38,74,100,2.06,US,1718866095
144,fray luis beltran,-39.3167,-65.7667,4.8,55,100,4.51,AR,1718866256
145,sosnogorsk,63.6023,53.8817,20.43,56,100,1.31,RU,1718866257
146,negotin,44.2264,22.5308,31.56,38,6,1.72,RS,1718866257
147,trindade,-16.6494,-49.4889,17.86,68,0,2.01,BR,1718866257
148,north bend,43.4065,-124.2243,12.7,94,100,5.66,US,1718866258
149,punta arenas,-53.15,-70.9167,-7.94,86,0,4.63,CL,1718866258
150,hithadhoo,-0.6,73.0833,28.65,75,5,3.99,MV,1718866258
151,jaisalmer,26.9147,70.9181,39.17,26,0,8.1,IN,1718866259
152,ulsteinvik,62.3432,5.8487,13.75,77,88,10.28,NO,1718866259
153,quellon,-43.1167,-73.6167,5.42,74,100,4.8,CL,1718866260
154,crane,31.3974,-102.3501,22.14,70,99,9.49,US,1718866260
155,puerto el triunfo,13.2833,-88.55,24.37,96,100,2.25,SV,1718866260
156,ketchikan,55.3422,-131.6461,14.99,94,36,1.54,US,1718866261
157,pacific grove,36.6177,-121.9166,13.01,87,100,3.13,US,1718866261
158,asha,54.9973,57.2722,15.86,99,100,3.41,RU,1718866262
159,monrovia,6.3005,-10.7969,25.19,86,100,1.16,LR,1718866262
160,south boston,42.3334,-71.0495,25.11,68,75,4.63,US,1718866263
161,hasaki,35.7333,140.8333,27.38,78,100,7.36,JP,1718866263
162,saint-jean-de-monts,46.7833,-2.0667,16.53,88,1,1.04,FR,1718866263
163,santona,43.4439,-3.4576,19.01,80,97,1.3,ES,1718866264
164,saarijarvi,62.7049,25.254,13.3,68,90,5.41,FI,1718866264
165,alaghsas,17.0187,8.0168,30.94,30,6,1.54,NE,1718866264
166,kourou,5.1552,-52.6478,24.03,93,51,2.26,GF,1718866265
167,montepuez,-13.1256,38.9997,26.2,47,0,3.96,MZ,1718866265
168,yeniseysk,58.4497,92.1703,6.12,97,100,3.43,RU,1718866265
169,lebu,-37.6167,-73.65,11.21,91,100,12.67,CL,1718866089
170,deir ez-zor,35.3359,40.1408,41.09,7,0,0.84,SY,1718866266
171,ugoofaaru,5.6667,73.0,28.68,78,100,6.1,MV,1718866266
172,vernon,50.2581,-119.2691,15.74,51,99,4.12,CA,1718866266
173,sijunjung,-0.6876,100.9537,33.06,50,90,1.02,ID,1718866267
174,northam,51.0333,-4.2167,15.34,86,100,1.81,GB,1718866267
175,keflavik,64.0049,-22.5624,8.24,93,75,2.06,IS,1718866268
176,bu'aale,1.0833,42.5833,30.69,53,43,4.99,SO,1718866268
177,juneau,58.3019,-134.4197,16.0,67,20,2.06,US,1718866268
178,summerside,46.3959,-63.7876,21.19,100,100,6.17,CA,1718866269
179,usogorsk,63.4106,48.6872,17.65,76,100,2.89,RU,1718866269
180,gasa,31.5,34.4667,27.93,58,0,2.33,PS,1718866269
181,akureyri,65.6835,-18.0878,4.96,87,100,1.54,IS,1718866270
182,chibougamau,49.9168,-74.3659,16.79,94,100,4.12,CA,1718866270
183,binzhou,37.3667,118.0167,36.4,23,100,4.82,CN,1718866270
184,bredasdorp,-34.5322,20.0403,10.38,78,6,1.7,ZA,1718866271
185,namibe,-15.1961,12.1522,19.84,73,0,1.26,AO,1718866271
186,okhotsk,59.3833,143.3,11.55,78,49,4.41,RU,1718866271
187,nyurba,63.2842,118.3319,22.26,46,100,4.04,RU,1718866272
188,kuala terengganu,5.3302,103.1408,32.97,66,20,4.12,MY,1718866272
189,naze,28.3667,129.4833,27.51,82,100,6.09,JP,1718866272
190,invercargill,-46.4,168.35,5.57,86,100,0.45,NZ,1718866247
191,nemuro,43.3236,145.575,11.86,89,100,4.59,JP,1718866273
192,paka,4.6374,103.4368,31.96,70,20,2.57,MY,1718866274
193,sandnessjoen,66.0217,12.6316,9.29,87,75,10.29,NO,1718866274
194,breves,-1.6822,-50.4803,22.68,97,40,1.42,BR,1718866101
195,nova sintra,14.8667,-24.7167,24.47,88,100,7.94,CV,1718866275
196,feodosiya,45.0333,35.3833,28.26,46,67,2.55,UA,1718866275
197,remire-montjoly,4.9167,-52.2667,24.02,100,0,1.03,GF,1718866275
198,laojunmiao,39.8333,97.7333,22.03,27,100,6.04,CN,1718866276
199,aykhal,66.0,111.5,15.94,72,100,7.79,RU,1718866276
200,haiku-pauwela,20.9219,-156.3051,24.01,81,40,9.26,US,1718866276
201,chateau-du-loir,47.6949,0.4185,17.94,96,100,3.95,FR,1718866277
202,rudsar,37.1376,50.288,28.99,48,3,3.58,IR,1718866277
203,margate,51.3813,1.3862,14.94,81,68,2.24,GB,1718866278
204,sovetskaya gavan',48.9723,140.2878,9.01,96,100,3.0,RU,1718866102
205,yonan-up,37.9089,126.1611,28.03,50,0,3.85,KP,1718866278
206,katabu,-4.9333,122.5167,29.49,50,32,3.94,ID,1718866279
207,tangalle,6.024,80.7911,31.09,78,100,5.5,LK,1718866280
208,borba,-4.3878,-59.5939,22.75,88,36,0.7,BR,1718866280
209,kursavka,44.4564,42.5093,25.31,60,27,4.01,RU,1718866281
210,port nelson,23.6333,-74.8333,27.04,80,13,3.9,BS,1718866281
211,libreville,0.3925,9.4537,25.01,83,20,2.57,GA,1718866281
212,hotan,37.0997,79.9269,30.9,18,96,3.58,CN,1718866282
213,vilyuysk,63.7553,121.6247,21.94,38,82,4.3,RU,1718866282
214,tocopilla,-22.092,-70.1979,16.49,74,0,1.51,CL,1718866283
215,brookings,44.3114,-96.7984,16.0,93,100,4.12,US,1718866162
216,tolanaro,-25.0319,46.9987,23.04,68,20,5.14,MG,1718866284
217,saldus,56.6636,22.4881,18.03,56,8,4.91,LV,1718866284
218,acapulco de juarez,16.8634,-99.8901,24.16,88,100,3.08,MX,1718866084
219,kapa'a,22.0752,-159.319,26.99,86,100,9.77,US,1718866285
220,cabo san lucas,22.8909,-109.9124,26.45,56,0,6.71,MX,1718866285
221,kavaratti,10.5669,72.642,28.96,80,100,7.39,IN,1718866285
222,afaahiti,-17.75,-149.2833,21.93,65,87,4.96,PF,1718866286
223,kars,40.602,43.095,21.25,60,20,1.54,TR,1718866286
224,sabang,5.8933,95.3214,29.28,77,100,7.4,ID,1718866286
225,ust-nera,64.5667,143.2,22.08,43,100,0.49,RU,1718866287
226,yelizovo,53.1873,158.3805,11.08,66,40,7.0,RU,1718866287
227,taltal,-25.4,-70.4833,13.49,81,5,0.85,CL,1718866288
228,puerto baquerizo moreno,-0.9,-89.6,21.76,89,100,4.58,EC,1718866288
229,lorengau,-2.0226,147.2712,28.03,79,35,3.73,PG,1718866288
230,san miguel panixtlahuaca,16.2484,-97.3843,20.26,96,100,0.5,MX,1718866289
231,elliot lake,46.3834,-82.6331,15.59,82,99,2.23,CA,1718866289
232,nadym,65.5333,72.5167,13.17,40,38,4.38,RU,1718866289
233,beeville,28.4008,-97.7483,25.55,94,100,7.2,US,1718866290
234,saipan,15.1355,145.701,31.39,79,40,5.66,MP,1718866290
235,caorle,45.5966,12.8758,26.65,77,2,3.62,IT,1718866290
236,kuqa,41.7278,82.9364,30.97,20,0,4.88,CN,1718866291
237,nephi,39.7102,-111.8363,13.99,27,20,2.68,US,1718866291
238,pokrovsk,48.282,37.1758,29.22,38,98,5.29,UA,1718866291
239,cuito,-12.3833,16.9333,15.23,33,0,1.91,AO,1718866291
240,berdigestyakh,62.0989,126.6992,19.79,53,63,2.93,RU,1718866292
241,tura,25.5198,90.2201,30.27,77,45,3.64,IN,1718866292
242,cannonvale,-20.2833,148.7,20.88,66,0,3.31,AU,1718866293
243,karratha,-20.7377,116.8463,27.51,33,5,8.76,AU,1718866293
244,zag,46.9441,99.165,14.56,52,100,10.83,MN,1718866294
245,peace river,56.2501,-117.286,11.17,71,40,1.03,CA,1718866280
246,tongliao,43.6125,122.2653,32.21,29,75,8.6,CN,1718866294
247,waingapu,-9.6567,120.2641,28.05,56,67,7.09,ID,1718866295
248,hopelchen,19.7667,-89.85,25.11,90,100,3.09,MX,1718866295
249,daru,-9.0763,143.2092,25.23,76,100,7.67,PG,1718866295
250,nouadhibou,20.931,-17.0347,21.99,53,6,8.75,MR,1718866296
251,tamanrasset,22.785,5.5228,31.95,9,0,2.06,DZ,1718866297
252,tazacorte,28.629,-17.9293,19.54,74,40,6.17,ES,1718866297
253,taseyevo,57.2169,94.8978,15.81,41,100,6.74,RU,1718866297
254,sitka,57.0531,-135.33,11.94,76,75,1.54,US,1718866298
255,harper,4.375,-7.7169,25.02,87,100,3.68,LR,1718866298
256,pangai,-19.8,-174.35,26.06,89,75,0.0,TO,1718866298
257,rice lake,45.5061,-91.7382,15.82,86,0,2.06,US,1718866299
258,ixtapa,20.7,-105.2,23.03,92,80,0.76,MX,1718866299
259,fort frances,48.5999,-93.4003,7.87,93,0,0.0,CA,1718866299
260,liepaja,56.5419,21.0367,16.99,82,20,4.63,LV,1718866044
261,rio grande,-32.035,-52.0986,16.39,93,100,4.45,BR,1718866300
262,antonio enes,-16.2325,39.9086,26.52,62,0,3.12,MZ,1718866300
263,otawara,36.8667,140.0333,28.5,49,99,5.08,JP,1718866301
264,kayangel,8.0823,134.7173,29.19,68,96,1.37,PW,1718866301
265,la'ie,21.6477,-157.9253,26.98,79,100,2.68,US,1718866301
266,elassona,39.8947,22.1886,27.63,37,0,0.88,GR,1718866302
267,xuddur,4.1213,43.8894,28.72,51,27,9.66,SO,1718866302
268,la sarre,48.8002,-79.1996,16.37,97,100,2.56,CA,1718866185
269,fundao,-19.9341,-40.4047,20.74,93,2,1.11,BR,1718866303
270,lhokseumawe,5.1801,97.1507,30.3,68,94,3.23,ID,1718866303
271,xilin hot,43.9667,116.0333,31.53,21,100,7.0,CN,1718866303
272,lodwar,3.1191,35.5973,30.3,46,26,5.01,KE,1718866304
273,st. john's,47.5649,-52.7093,18.66,93,75,10.29,CA,1718866244
274,meulaboh,4.1363,96.1285,30.16,67,66,3.58,ID,1718866304
275,jinshi,29.6049,111.8701,29.19,78,54,2.22,CN,1718866304
276,selfoss,63.9331,-20.9971,8.36,84,100,1.61,IS,1718866305
277,susuman,62.7833,148.1667,21.63,40,63,3.26,RU,1718866306
278,tovarkovskiy,53.6822,38.2092,23.5,74,88,7.81,RU,1718866306
279,lerwick,60.1545,-1.1494,11.0,79,56,8.62,GB,1718866306
280,flying fish cove,-10.4217,105.6791,28.82,69,40,5.66,CX,1718866306
281,altamira,-3.2033,-52.2064,21.84,93,9,0.58,BR,1718866307
282,san borja,-14.8167,-66.85,21.06,98,100,1.2,BO,1718866307
283,sangueya,10.7,-14.3667,22.84,92,100,0.89,GN,1718866307
284,celanova,42.153,-7.9551,13.22,94,100,1.09,ES,1718866308
285,carutapera,-1.195,-46.02,23.67,95,27,2.54,BR,1718866308
286,new norfolk,-42.7826,147.0587,8.84,86,62,0.64,AU,1718866308
287,leiyang,26.4024,112.8591,33.44,66,99,3.94,CN,1718866309
288,fortuna,40.5982,-124.1573,12.19,94,100,0.89,US,1718866309
289,yonggwang-up,40.0183,127.4547,32.44,34,2,3.99,KP,1718866309
290,lubang,13.8584,120.124,29.47,74,100,3.17,PH,1718866310
291,puerto penasco,31.3167,-113.5333,26.77,50,0,1.37,MX,1718866310
292,motueka,-41.1333,173.0167,7.31,90,99,1.74,NZ,1718866310
293,huangyan,28.6478,121.2594,25.4,99,100,1.02,CN,1718866311
294,salinopolis,-0.6136,-47.3561,26.15,85,6,5.51,BR,1718866311
295,sanya,18.2431,109.505,33.09,75,20,3.0,CN,1718866312
296,abong mbang,3.9833,13.1833,23.36,84,14,0.41,CM,1718866312
297,nova vicosa,-17.8919,-39.3719,22.04,84,0,2.21,BR,1718866313
298,onega,63.9061,38.1404,12.26,95,100,1.76,RU,1718866313
299,barra de santo antonio,-9.4047,-35.5072,23.6,83,39,5.67,BR,1718866313
300,nabulao,9.6616,122.4577,24.39,96,100,2.12,PH,1718866314
301,swellendam,-34.0226,20.4417,11.57,76,5,1.53,ZA,1718866314
302,east ballina,-28.8667,153.5833,14.89,60,99,3.17,AU,1718866314
303,poshekhon'ye,58.4993,39.1353,15.18,93,100,4.16,RU,1718866315
304,kailua-kona,19.6406,-155.9956,25.98,91,75,1.54,US,1718866315
305,shingu,33.7333,135.9833,25.11,74,100,2.63,JP,1718866315
306,pont rouge,48.8833,-72.0825,23.16,92,100,4.46,CA,1718866316
307,tokar,18.4254,37.729,42.69,17,25,11.66,SD,1718866316
308,lamezia terme,38.9659,16.3092,32.27,78,0,1.54,IT,1718866316
309,rockland,41.1668,-74.0496,23.69,82,100,1.63,US,1718866281
310,mao,39.8885,4.2658,22.31,100,20,3.6,ES,1718866317
311,booue,-0.0921,11.9385,24.7,91,85,1.1,GA,1718866317
312,klaksvik,62.2266,-6.589,9.51,84,89,9.76,FO,1718866317
313,taoudenni,22.6783,-3.9836,36.67,11,37,7.13,ML,1718866318
314,coquimbo,-29.9533,-71.3436,12.21,79,0,5.66,CL,1718866318
315,kirkland lake,48.1446,-80.0377,19.16,77,99,1.54,CA,1718866318
316,mil'kovo,55.6078,37.7956,26.35,63,86,5.69,RU,1718866319
317,gelemso,8.8167,40.5167,23.47,52,94,3.15,ET,1718866319
318,ta`u,-14.2336,-169.5144,27.63,78,18,6.43,AS,1718866320
319,ciudad cuauhtemoc,22.1833,-97.8333,25.24,90,100,4.57,MX,1718866320
320,minas de marcona,-15.2119,-75.1103,10.65,92,76,4.69,PE,1718866320
321,douentza,14.9951,-2.9517,33.66,36,99,1.41,ML,1718866321
322,yuzhno-kurilsk,44.0306,145.8556,11.11,91,100,3.53,RU,1718866321
323,arkhangel'sk,64.5401,40.5433,22.06,53,40,3.0,RU,1718866321
324,machico,32.7,-16.7667,19.45,73,40,4.12,PT,1718866322
325,illizi,26.4833,8.4667,29.89,16,0,7.62,DZ,1718866324
326,san-pedro,4.7485,-6.6363,24.46,92,100,2.49,CI,1718866324
327,cascais,38.6979,-9.4215,17.51,83,75,9.83,PT,1718866325
328,klyuchi,52.2667,79.1667,21.28,43,100,1.64,RU,1718866325
329,ghat,24.9647,10.1728,31.27,19,0,1.05,LY,1718866325
330,puerto armuelles,8.2833,-82.8667,25.05,93,100,2.24,PA,1718866326
331,gazipasa,36.2694,32.3179,28.05,74,0,2.57,TR,1718866326
332,castillos,-34.1667,-53.8333,10.63,97,30,1.92,UY,1718866326
333,villa gesell,-37.2639,-56.973,5.03,78,0,4.5,AR,1718866197
334,kirakira,-10.4544,161.9205,26.68,87,100,5.18,SB,1718866327
335,krasnyy chikoy,50.3643,108.7512,18.7,89,100,3.51,RU,1718866327
336,khandyga,62.6667,135.6,20.92,47,36,2.8,RU,1718866328
337,sisimiut,66.9395,-53.6735,2.91,91,87,1.21,GL,1718866328
338,dudinka,69.4058,86.1778,3.36,80,100,3.39,RU,1718866328
339,grand falls-windsor,48.9332,-55.6649,19.72,91,0,4.67,CA,1718866329
340,nema,57.5067,50.5011,22.46,53,0,5.61,RU,1718866329
341,truth or consequences,33.1284,-107.2528,27.13,44,0,5.66,US,1718866329
342,itapuranga,-15.5622,-49.9486,16.73,58,0,1.19,BR,1718866330
343,puerto madryn,-42.7692,-65.0385,2.74,76,100,4.98,AR,1718866123
344,ylitornio,66.3089,23.6773,11.52,78,100,2.0,FI,1718866330
345,shimoda,34.6667,138.95,27.28,79,100,3.24,JP,1718866331
346,vadso,70.0744,29.7487,8.49,93,100,8.75,NO,1718866331
347,pavlovka,52.6897,47.1405,23.98,57,73,4.57,RU,1718866331
348,fuerte olimpo,-21.0415,-57.8738,24.95,40,80,2.94,PY,1718866331
349,kokopo,-4.352,152.2633,25.82,86,100,5.68,PG,1718866332
350,sola,-13.8833,167.55,28.37,84,75,0.0,VU,1718866332
351,nogliki,51.8333,143.1667,5.98,97,100,3.37,RU,1718866332
352,rio brilhante,-21.8019,-54.5464,19.27,48,0,2.27,BR,1718866270
353,iskateley,67.6803,53.1512,12.19,45,100,4.85,RU,1718866333
354,tarawa,1.419,172.984,30.05,79,40,3.6,KI,1718866334
355,mogocha,53.7333,119.7667,25.11,22,91,2.78,RU,1718866334
356,ouadda,8.0777,22.4007,25.25,75,93,1.86,CF,1718866334
357,enewetak,11.3474,162.3373,28.26,84,22,7.58,MH,1718866335
358,shache,38.4167,77.2406,32.77,16,100,1.58,CN,1718866335
359,santa cruz de el seibo,18.7656,-69.0389,24.21,90,99,0.77,DO,1718866335
360,fernley,39.608,-119.2518,19.82,13,91,1.79,US,1718866336
361,ampanihy,-24.7,44.75,23.51,61,0,0.79,MG,1718866336
362,ishigaki,24.3448,124.1572,32.07,84,40,6.17,JP,1718866336
363,thunder bay,48.4001,-89.3168,9.99,93,0,1.54,CA,1718866337
364,sinabang,2.4803,96.3801,30.57,68,74,3.94,ID,1718866337
365,georgetown,5.4112,100.3354,30.97,66,20,3.09,MY,1718866281
366,palamos,41.8484,3.1291,19.6,61,100,2.13,ES,1718866338
367,labrador city,52.9463,-66.9114,20.1,79,100,3.09,CA,1718866338
368,junction city,39.0286,-96.8314,21.19,95,91,0.89,US,1718866248
369,silsbee,30.3491,-94.178,26.9,97,83,3.32,US,1718866130
370,sefaatli,39.5043,34.7563,23.69,46,6,2.93,TR,1718866339
371,nadi,-17.8,177.4167,28.0,74,20,4.12,FJ,1718866339
372,sinop,41.7711,34.8709,25.46,52,0,3.02,TR,1718866340
373,priob'ye,62.5206,65.5964,16.05,44,100,5.16,RU,1718866340
374,al mindak,20.1588,41.2834,28.78,19,0,1.47,SA,1718866341
375,trinidad,-14.8333,-64.9,22.26,84,89,1.39,BO,1718866341
376,i-n-salah,27.1935,2.4607,36.21,7,5,7.68,DZ,1718866341
377,kristiansund,63.1115,7.732,14.03,74,75,10.29,NO,1718866342
378,salinas,36.6777,-121.6555,13.45,85,100,4.12,US,1718866342
379,wanning,18.8003,110.3967,31.74,69,100,4.88,CN,1718866342
380,imishli,39.8709,48.06,31.47,30,0,3.41,AZ,1718866343
381,el bauga,18.262,33.9081,38.4,24,100,5.05,SD,1718866343
382,sultanah,24.4926,39.5857,40.25,7,20,1.54,SA,1718866343
383,medicine hat,50.0501,-110.6683,12.39,67,0,1.54,CA,1718866216
384,kirksville,40.1948,-92.5833,21.01,96,0,3.09,US,1718866344
385,tommot,58.9564,126.2925,19.76,57,69,4.24,RU,1718866344
386,qamdo,31.1667,97.2333,19.13,32,66,2.88,CN,1718866344
387,anacortes,48.5126,-122.6127,16.06,88,0,0.89,US,1718866050
388,sao cristovao,-11.0147,-37.2064,24.95,44,40,5.66,BR,1718866345
389,ebon,4.582,168.6964,28.56,78,96,5.59,MH,1718866345
390,alindao,5.0267,21.2088,25.19,83,100,1.14,CF,1718866346
391,elko,41.0002,-115.5012,16.79,27,100,4.02,US,1718866346
392,murray bridge,-35.1167,139.2667,11.85,66,68,3.09,AU,1718866346
393,yuma,32.7253,-114.6244,31.43,33,0,2.57,US,1718866347
394,tobelo,1.7284,128.0095,27.15,82,92,0.86,ID,1718866347
395,cabedelo,-6.9811,-34.8339,22.37,84,0,4.41,BR,1718866336
396,champerico,14.3,-91.9167,23.83,94,100,2.75,GT,1718866347
397,la mira,18.035,-102.3266,25.32,91,100,2.41,MX,1718866348
398,howrah,22.5892,88.3103,35.0,71,40,2.57,IN,1718866348
399,tomatlan,19.9333,-105.25,22.78,97,35,0.89,MX,1718866348
400,saint augustine beach,29.8505,-81.2654,26.7,83,75,7.72,US,1718866349
401,nanpara,27.8667,81.5,40.83,28,9,3.13,IN,1718866349
402,el calafate,-50.3408,-72.2768,-6.19,94,99,0.71,AR,1718866349
403,saint-pierre,-21.3393,55.4781,24.82,50,0,6.69,RE,1718866350
404,geraldton,-28.7667,114.6,20.23,37,63,6.17,AU,1718866350
405,severo-yeniseyskiy,60.3725,93.0408,8.84,61,100,0.87,RU,1718866350
406,beyneu,45.3167,55.2,35.16,28,14,4.75,KZ,1718866351
407,dunedin,-45.8742,170.5036,8.78,92,85,2.24,NZ,1718866062
408,nova xavantina,-14.6667,-52.35,18.46,57,1,1.17,BR,1718866352
409,mahdia,35.5047,11.0622,25.97,45,0,3.8,TN,1718866352
410,nkhotakota,-12.9274,34.2961,24.15,60,0,2.24,MW,1718866352
411,la ronge,55.1001,-105.2842,10.14,81,20,2.06,CA,1718866352
412,kenai,60.5544,-151.2583,11.05,88,0,7.72,US,1718866353
413,aketi,2.7388,23.7833,28.66,62,14,1.16,CD,1718866353
414,sittwe,20.15,92.9,28.78,77,100,2.9,MM,1718866354
415,presque isle,46.6811,-68.0159,27.24,75,0,2.57,US,1718866190
416,goranboy,40.6103,46.7897,30.16,35,0,2.91,AZ,1718866205
417,barranca,-10.75,-77.7667,17.02,87,100,2.54,PE,1718866142
418,rio verde,21.9333,-99.9833,20.67,90,100,1.93,MX,1718866355
419,kidodi,-7.6036,37.0044,24.51,79,43,1.78,TZ,1718866355
420,lazaro cardenas,17.9583,-102.2,26.1,89,100,3.03,MX,1718866065
421,plettenberg bay,-34.0527,23.3716,13.32,69,0,1.88,ZA,1718866356
422,port moresby,-9.4431,147.1797,27.68,69,40,7.72,PG,1718866323
423,tabou,4.423,-7.3528,24.88,88,100,3.56,CI,1718866356
424,marina di cerveteri,41.98,12.0529,29.54,27,98,0.97,IT,1718866357
425,ierapetra,35.01,25.7353,29.52,40,0,6.26,GR,1718866357
426,suoyarvi,62.0833,32.35,12.03,95,100,3.96,RU,1718866293
427,kirensk,57.7853,108.1119,11.78,97,100,3.29,RU,1718866358
428,mahalapye,-23.1041,26.8142,17.89,26,0,1.95,BW,1718866358
429,chernyshevskiy,63.0128,112.4714,21.59,49,100,2.77,RU,1718866358
430,pathalgaon,22.5667,83.4667,35.07,38,100,3.68,IN,1718866358
431,lisala,2.15,21.5167,28.16,56,21,0.59,CD,1718866359
432,hengchun,22.0042,120.7439,30.95,73,28,5.38,TW,1718866359
433,san antonio de pale,-1.4014,5.6325,24.1,90,20,4.98,GQ,1718866359
434,revda,56.801,59.9303,16.92,99,100,2.47,RU,1718866360
435,singaraja,-8.112,115.0882,28.34,66,20,2.52,ID,1718866360
436,minot air force base,48.4209,-101.3391,15.05,81,75,4.12,US,1718866360
437,jeju city,33.5097,126.5219,24.96,78,100,11.32,KR,1718866361
438,cadale,2.7603,46.3222,28.04,72,34,7.93,SO,1718866361
439,vilyuchinsk,52.9306,158.4028,11.15,80,23,2.65,RU,1718866362
440,kassala,15.451,36.4,30.58,47,12,8.83,SD,1718866362
441,colonia,50.9333,6.95,17.47,79,0,4.12,DE,1718866202
442,guerrero negro,27.9769,-114.0611,16.34,89,5,6.33,MX,1718866363
443,jaragua,-15.7569,-49.3344,16.35,72,0,2.01,BR,1718866363
444,mishkino,55.3389,63.9175,25.27,61,29,5.65,RU,1718866363
445,ca mau,9.1769,105.15,31.78,56,100,5.37,VN,1718866363
446,tuy hoa,13.0833,109.3,30.21,71,100,1.73,VN,1718866364
447,bouarfa,32.53,-1.95,16.39,63,0,7.71,MA,1718866364
448,moratuwa,6.773,79.8816,30.01,82,100,6.2,LK,1718866364
449,itapirapua,-15.8233,-50.6133,17.79,50,0,1.76,BR,1718866365
450,krasnokamensk,50.0979,118.0369,22.01,47,100,6.92,RU,1718866365
451,nuku'alofa,-21.1333,-175.2,24.19,94,40,2.57,TO,1718866366
452,arar,30.9753,41.0381,40.01,5,0,2.57,SA,1718866366
453,arakkonam,13.1,79.6667,32.9,32,100,4.78,IN,1718866367
454,port-cartier,50.0334,-66.8654,24.82,71,70,5.07,CA,1718866367
455,katsuura,35.1333,140.3,22.62,87,100,5.01,JP,1718866367
456,puerto lempira,15.2667,-83.7667,24.34,89,100,3.34,HN,1718866368
457,robbah,33.2797,6.9098,26.8,25,0,8.95,DZ,1718866368
458,takoradi,4.8845,-1.7554,24.95,89,100,2.37,GH,1718866368
459,lillehammer,61.1146,10.4674,15.06,51,10,3.61,NO,1718866368
460,'ain el turk,35.7438,-0.7693,20.5,73,20,5.14,DZ,1718866369
461,cill airne,52.05,-9.5167,11.9,78,100,0.67,IE,1718866304
462,kununurra,-15.7667,128.7333,32.99,24,100,3.6,AU,1718866370
463,lumphat,13.4878,106.9816,34.03,51,96,2.96,KH,1718866370
464,shangrao,28.4532,117.9686,26.04,94,100,0.76,CN,1718866370
465,sarikei,2.1167,111.5167,27.19,94,100,2.21,MY,1718866371
466,jurm,36.8648,70.8342,22.66,36,91,3.01,AF,1718866371
467,muisne,0.6,-80.0333,23.82,88,100,2.94,EC,1718866371
468,ponta delgada,37.7333,-25.6667,18.44,63,75,2.06,PT,1718866158
469,skovorodino,53.9833,123.9167,24.24,33,52,2.19,RU,1718866289
470,skofja loka,46.1655,14.3063,26.54,73,0,0.51,SI,1718866372
471,las tablas,7.7667,-80.2833,25.1,99,100,2.29,PA,1718866372
472,chiquimula,14.8,-89.55,22.33,96,100,1.96,GT,1718866373
473,falmouth,50.1544,-5.0711,14.56,94,75,3.6,GB,1718866373
474,arauca,7.0847,-70.7591,23.16,98,100,1.62,CO,1718866373
475,byron bay,-28.65,153.6167,14.84,64,100,1.73,AU,1718866374
476,north battleford,52.7834,-108.2847,6.89,75,0,5.14,CA,1718866374
477,nuuk,64.1835,-51.7216,2.34,93,100,7.72,GL,1718866200
478,timbuktu,16.7735,-3.0074,33.12,34,6,6.43,ML,1718866374
479,pechora,65.1472,57.2244,18.74,39,100,2.99,RU,1718866375
480,katsuren-haebaru,26.3369,127.8719,32.21,71,40,8.23,JP,1718866375
481,nova borova,50.693,28.6345,16.96,75,51,8.9,UA,1718866376
482,port saint john's,-31.6229,29.5448,17.22,67,16,1.35,ZA,1718866376
483,ust'-kulom,61.6864,53.6902,16.86,88,99,1.28,RU,1718866377
484,kampene,-3.6,26.6667,27.52,41,27,1.5,CD,1718866377
485,gadzhiyevo,69.2551,33.3362,16.35,69,12,5.86,RU,1718866377
486,pimentel,-6.8367,-79.9342,18.16,82,0,6.17,PE,1718866378
487,gizo,-8.103,156.8419,27.54,81,100,5.12,SB,1718866378
488,tarnogskiy gorodok,60.4997,43.5761,23.13,52,65,5.07,RU,1718866378
489,cockburn town,21.4612,-71.1419,28.47,78,80,8.06,TC,1718866082
490,navalmoral de la mata,39.8916,-5.5406,14.98,78,2,2.97,ES,1718866379
491,pacocha,-17.5833,-71.3333,15.92,88,100,1.46,PE,1718866379
492,pigeon forge,35.7884,-83.5543,22.27,96,0,1.54,US,1718866346
493,kitimat,54.0524,-128.6534,19.21,68,8,1.4,CA,1718866380
494,kuytun,54.3419,101.5036,14.34,48,100,2.8,RU,1718866380
495,pleasant hill,37.948,-122.0608,14.74,81,0,6.17,US,1718866380
496,mili,6.0815,171.735,29.17,78,99,6.45,MH,1718866381
497,harstad,68.799,16.5293,11.2,86,100,8.94,NO,1718866381
498,sur,22.5667,59.5289,39.08,31,0,3.57,OM,1718866381
499,akobo,7.4344,3.9497,24.25,95,100,1.11,NG,1718866382
500,kegen,43.0197,79.2203,22.38,41,0,2.59,KZ,1718866382
501,zhanaozen,43.3,52.8,34.37,26,10,3.86,KZ,1718866382
502,mugia,43.1041,-9.2179,15.65,86,74,6.96,ES,1718866383
503,ceeldheer,3.8488,47.1806,29.29,64,100,9.29,SO,1718866383
504,tshabong,-26.05,22.45,13.89,25,0,5.66,BW,1718866383
505,morropon,-5.1822,-79.9689,21.25,77,100,1.12,PE,1718866383
506,abay,49.6311,72.8539,25.21,27,0,4.71,KZ,1718866384
507,columbus,39.9612,-82.9988,24.11,92,75,0.0,US,1718866230
508,lodja,-3.4833,23.4333,27.76,34,80,1.65,CD,1718866384
509,rumphi,-11.0186,33.8575,23.23,59,2,3.42,MW,1718866385
510,dese,11.1333,39.6333,22.17,31,41,2.58,ET,1718866385
511,vanimo,-2.6741,141.3028,27.08,80,91,1.14,PG,1718866385
512,sao jose do rio pardo,-21.5956,-46.8886,13.06,63,0,2.22,BR,1718866386
513,balabac,7.9868,117.0645,27.23,82,100,3.85,PH,1718866386
514,san luis de la loma,17.2706,-100.8939,26.07,91,100,2.49,MX,1718866386
515,isangel,-19.55,169.2667,23.29,79,96,6.53,VU,1718866387
516,dryden,49.7833,-92.7503,11.16,76,0,2.06,CA,1718866387
517,eraan,9.0629,117.7016,26.99,88,100,3.41,PH,1718866387
518,valentin gomez farias,28.2167,-106.5833,21.47,62,6,7.26,MX,1718866388
519,southport,53.6478,-3.0065,15.45,94,0,1.54,GB,1718866388
520,mokhotlong,-29.2894,29.0675,6.66,47,4,1.43,LS,1718866388
521,amga,60.8953,131.9608,20.31,44,9,2.66,RU,1718866389
522,nchelenge,-9.3451,28.734,21.43,53,2,2.38,ZM,1718866389
523,ar ruseris,11.8659,34.3869,24.55,79,100,2.79,SD,1718866389
524,puerto colombia,10.9878,-74.9547,26.05,74,100,0.78,CO,1718866390
525,cornwall,45.0181,-74.7281,26.98,78,0,3.6,CA,1718866390
526,bridgewater,44.3835,-64.5155,19.5,89,100,5.14,CA,1718866390
527,alta,69.9689,23.2717,8.59,81,100,7.2,NO,1718866247
528,eydhafushi,5.1033,73.0708,29.07,75,100,5.68,MV,1718866391
529,imperatriz,-5.5264,-47.4917,24.03,57,0,0.0,BR,1718866391
530,namtsy,62.7161,129.6658,20.79,43,60,4.06,RU,1718866392
531,nueva gerona,21.8833,-82.8,27.66,75,100,5.78,CU,1718866392
532,manga,11.6636,-1.0731,27.8,66,94,4.98,BF,1718866392
533,rongelap,11.1635,166.8941,28.49,81,4,7.35,MH,1718866392
534,zhigalovo,54.8097,105.1578,8.11,97,100,2.56,RU,1718866393
535,al hufuf,25.3646,49.5653,42.19,7,0,8.75,SA,1718866393
536,isla mujeres,21.2311,-86.731,27.03,82,100,6.82,MX,1718866393
537,dolores,-36.3132,-57.6792,5.09,87,4,2.91,AR,1718866129
538,malpur,23.35,73.45,35.23,48,98,5.77,IN,1718866394
539,magadan,59.5667,150.8,12.15,87,100,0.75,RU,1718866394
540,nosy varika,-20.5833,48.5333,22.41,68,100,0.91,MG,1718866395
541,luganville,-15.5333,167.1667,25.19,91,85,5.42,VU,1718866395
542,adam,22.3756,57.5233,43.49,11,4,0.91,OM,1718866395
543,vila velha,-20.3297,-40.2925,20.97,94,0,1.54,BR,1718866212
544,kankaanpaa,61.8,22.4167,11.42,55,100,5.32,FI,1718866396
545,yaren,-0.5472,166.916,28.96,75,100,3.74,NR,1718866396
546,wewak,-3.5534,143.6268,28.14,72,100,2.75,PG,1718866396
547,hastings,50.8552,0.5729,14.99,88,14,6.42,GB,1718866397
548,obo,5.3998,26.4869,27.69,63,9,1.03,CF,1718866397
549,la gi,10.6667,107.7833,29.67,75,100,5.08,VN,1718866397
550,cedar city,37.6775,-113.0619,17.54,20,0,4.12,US,1718866334
551,talavera de la reina,39.9635,-4.8308,14.75,77,4,2.56,ES,1718866398
552,corner brook,48.9667,-57.9484,20.09,98,6,3.25,CA,1718866356
553,basco,20.4487,121.9702,30.15,79,28,6.77,PH,1718866398
554,tobruk,32.0836,23.9764,25.95,69,0,7.86,LY,1718866399
555,westport,41.1415,-73.3579,22.27,82,0,1.54,US,1718866399
556,baoqing,46.3317,132.2111,15.65,98,100,2.92,CN,1718866400
557,lexington park,38.2668,-76.4538,21.47,90,0,0.0,US,1718866400
558,ballina,-28.8667,153.5667,14.88,60,99,3.17,AU,1718866401
559,antsiranana,-12.2787,49.2917,27.42,50,20,9.26,MG,1718866401
560,hobyo,5.3505,48.5268,29.0,69,82,10.92,SO,1718866401
561,sambava,-14.2667,50.1667,25.42,57,6,6.53,MG,1718866402
562,itoman,26.1247,127.6694,32.21,84,75,7.72,JP,1718866402
563,makoua,0.0069,15.6333,27.33,68,50,1.53,CG,1718866402
564,hereford,52.0568,-2.7148,15.74,95,100,0.9,GB,1718866402
565,roma,43.2128,-75.4557,23.95,96,0,2.57,US,1718866264
566,ola,59.5833,151.2833,10.93,84,100,2.5,RU,1718866403
567,miandoab,36.9694,46.1027,28.21,21,0,5.71,IR,1718866403
568,tanumah,27.1,44.1333,41.06,6,0,2.03,SA,1718866404
569,miquelon,47.0975,-56.3814,10.0,98,18,4.53,PM,1718866404
570,al jawf,29.5,38.75,37.51,13,7,1.49,SA,1718866404
571,lichtenburg,-26.152,26.1597,13.74,20,0,4.16,ZA,1718866405
572,richards bay,-28.783,32.0377,20.43,72,68,3.08,ZA,1718866405
573,cerro azul,21.2,-97.7333,22.37,97,100,2.51,MX,1718866405
574,arno,60.1167,18.6333,12.66,48,93,3.37,SE,1718866405
